heart beat counter: 9788
$GPGGA,050358.00,3605.68559,N,14006.62865,E,1,06,1.31,21.2,M,39.3,M,,*61
heart beat counter: 9789
$GPGGA,050359.00,3605.68553,N,14006.62883,E,1,06,1.31,21.1,M,39.3,M,,*61
heart beat counter: 9790
$GPGGA,050400.00,3605.68561,N,14006.62886,E,1,06,1.31,21.3,M,39.3,M,,*6C
heart beat counter: 9791
$GPGGA,050401.00,3605.68550,N,14006.62893,E,1,06,1.31,21.5,M,39.3,M,,*6D
heart beat counter: 9792
$GPGGA,050402.00,3605.68576,N,14006.62873,E,1,06,1.31,21.9,M,39.3,M,,*68
heart beat counter: 9793
$GPGGA,050403.00,3605.68588,N,14006.62863,E,1,06,1.31,22.0,M,39.3,M,,*63
heart beat counter: 9794
$GPGGA,050404.00,3605.68604,N,14006.62855,E,1,06,1.31,22.2,M,39.3,M,,*64
heart beat counter: 9795
$GPGGA,050405.00,3605.68619,N,14006.62848,E,1,06,1.31,22.5,M,39.3,M,,*62
heart beat counter: 9796
$GPGGA,050406.00,3605.68628,N,14006.62849,E,1,05,1.32,22.6,M,39.3,M,,*61
heart beat counter: 9797
$GPGGA,050407.00,3605.68659,N,14006.62833,E,1,05,1.32,22.8,M,39.3,M,,*65
heart beat counter: 9798
$GPGGA,050408.00,3605.68669,N,14006.62831,E,1,05,1.32,22.9,M,39.3,M,,*6A
heart beat counter: 9799
$GPGGA,050409.00,3605.68676,N,14006.62835,E,1,05,1.32,23.0,M,39.3,M,,*69
heart beat counter: 9800
$GPGGA,050410.00,3605.68701,N,14006.62821,E,1,05,1.32,23.3,M,39.3,M,,*66
heart beat counter: 9801
$GPGGA,050411.00,3605.68714,N,14006.62819,E,1,05,1.32,23.5,M,39.3,M,,*6E
heart beat counter: 9802
$GPGGA,050412.00,3605.68714,N,14006.62823,E,1,05,1.32,23.7,M,39.3,M,,*66
heart beat counter: 9803
$GPGGA,050413.00,3605.68706,N,14006.62834,E,1,05,1.32,23.8,M,39.3,M,,*6D
heart beat counter: 9804
$GPGGA,050414.00,3605.68701,N,14006.62858,E,1,06,1.31,23.4,M,39.3,M,,*6B
heart beat counter: 9805
$GPGGA,050415.00,3605.68709,N,14006.62861,E,1,06,1.31,23.3,M,39.3,M,,*6F
heart beat counter: 9806
$GPGGA,050416.00,3605.68719,N,14006.62867,E,1,06,1.31,23.2,M,39.3,M,,*6A
heart beat counter: 9807
$GPGGA,050417.00,3605.68704,N,14006.62885,E,1,06,1.31,23.1,M,39.3,M,,*68
heart beat counter: 9808
$GPGGA,050418.00,3605.68702,N,14006.62890,E,1,06,1.31,23.1,M,39.3,M,,*65
heart beat counter: 9809
$GPGGA,050419.00,3605.68698,N,14006.62895,E,1,06,1.31,23.2,M,39.3,M,,*60
heart beat counter: 9810
$GPGGA,050420.00,3605.68697,N,14006.62899,E,1,06,1.31,23.3,M,39.3,M,,*68
heart beat counter: 9811
$GPGGA,050421.00,3605.68679,N,14006.62922,E,1,06,1.31,22.9,M,39.3,M,,*63
heart beat counter: 9812
$GPGGA,050422.00,3605.68680,N,14006.62930,E,1,06,1.31,23.0,M,39.3,M,,*6D
heart beat counter: 9813
$GPGGA,050423.00,3605.68664,N,14006.62944,E,1,06,1.31,23.1,M,39.3,M,,*64
heart beat counter: 9814
$GPGGA,050424.00,3605.68652,N,14006.62950,E,1,06,1.31,23.3,M,39.3,M,,*61
heart beat counter: 9815
$GPGGA,050425.00,3605.68638,N,14006.62962,E,1,06,1.31,23.3,M,39.3,M,,*6D
heart beat counter: 9816
$GPGGA,050426.00,3605.68636,N,14006.62970,E,1,06,1.31,23.2,M,39.3,M,,*62
heart beat counter: 9817
$GPGGA,050427.00,3605.68642,N,14006.62973,E,1,06,1.31,23.1,M,39.3,M,,*60
heart beat counter: 9818
$GPGGA,050428.00,3605.68614,N,14006.62990,E,1,06,1.31,23.2,M,39.3,M,,*62
heart beat counter: 9819
$GPGGA,050429.00,3605.68604,N,14006.63004,E,1,06,1.31,23.1,M,39.3,M,,*64
heart beat counter: 9820
$GPGGA,050430.00,3605.68576,N,14006.63025,E,1,06,1.31,23.4,M,39.3,M,,*6C
heart beat counter: 9821
$GPGGA,050431.00,3605.68602,N,14006.63017,E,1,06,1.31,23.2,M,39.3,M,,*6A
heart beat counter: 9822
$GPGGA,050432.00,3605.68565,N,14006.63043,E,1,06,1.31,23.2,M,39.3,M,,*6A
heart beat counter: 9823
$GPGGA,050433.00,3605.68572,N,14006.63044,E,1,06,1.31,23.1,M,39.3,M,,*69
heart beat counter: 9824
$GPGGA,050434.00,3605.68572,N,14006.63060,E,1,06,1.31,22.7,M,39.3,M,,*6F
heart beat counter: 9825
$GPGGA,050435.00,3605.68556,N,14006.63078,E,1,06,1.31,22.5,M,39.3,M,,*63
heart beat counter: 9826
$GPGGA,050436.00,3605.68557,N,14006.63098,E,1,06,1.31,21.8,M,39.3,M,,*61
heart beat counter: 9827
$GPGGA,050437.00,3605.68563,N,14006.63106,E,1,06,1.31,21.4,M,39.3,M,,*6D
heart beat counter: 9828
$GPGGA,050438.00,3605.68550,N,14006.63124,E,1,06,1.31,21.1,M,39.3,M,,*67
heart beat counter: 9829
$GPGGA,050439.00,3605.68538,N,14006.63137,E,1,06,1.31,21.0,M,39.3,M,,*6B
heart beat counter: 9830
$GPGGA,050440.00,3605.68546,N,14006.63145,E,1,06,1.31,20.6,M,39.3,M,,*6E
heart beat counter: 9831
$GPGGA,050441.00,3605.68555,N,14006.63155,E,1,06,1.32,20.2,M,39.3,M,,*6B
heart beat counter: 9832
$GPGGA,050442.00,3605.68545,N,14006.63164,E,1,06,1.32,20.3,M,39.3,M,,*6A
heart beat counter: 9833
$GPGGA,050443.00,3605.68538,N,14006.63174,E,1,06,1.32,20.2,M,39.3,M,,*61
heart beat counter: 9834
$GPGGA,050444.00,3605.68551,N,14006.63168,E,1,06,1.32,20.2,M,39.3,M,,*64
heart beat counter: 9835
$GPGGA,050445.00,3605.68558,N,14006.63169,E,1,06,1.32,20.2,M,39.3,M,,*6D
heart beat counter: 9836
$GPGGA,050446.00,3605.68576,N,14006.63166,E,1,06,1.32,19.9,M,39.3,M,,*6C
heart beat counter: 9837
$GPGGA,050447.00,3605.68586,N,14006.63166,E,1,06,1.32,19.7,M,39.3,M,,*6C
heart beat counter: 9838
$GPGGA,050448.00,3605.68589,N,14006.63158,E,1,06,1.32,20.0,M,39.3,M,,*6C
heart beat counter: 9839
$GPGGA,050449.00,3605.68619,N,14006.63133,E,1,06,1.32,20.1,M,39.3,M,,*6B
heart beat counter: 9840
$GPGGA,050450.00,3605.68614,N,14006.63153,E,1,06,1.32,19.6,M,39.3,M,,*65
heart beat counter: 9841
$GPGGA,050451.00,3605.68625,N,14006.63160,E,1,06,1.32,19.2,M,39.3,M,,*62
heart beat counter: 9842
$GPGGA,050452.00,3605.68613,N,14006.63181,E,1,06,1.32,18.9,M,39.3,M,,*61
heart beat counter: 9843
$GPGGA,050453.00,3605.68629,N,14006.63180,E,1,06,1.32,18.6,M,39.3,M,,*67
heart beat counter: 9844
$GPGGA,050454.00,3605.68626,N,14006.63180,E,1,06,1.32,18.8,M,39.3,M,,*61
heart beat counter: 9845
$GPGGA,050455.00,3605.68617,N,14006.63183,E,1,06,1.32,18.9,M,39.3,M,,*60
heart beat counter: 9846
$GPGGA,050456.00,3605.68603,N,14006.63180,E,1,06,1.32,19.3,M,39.3,M,,*6E
heart beat counter: 9847
$GPGGA,050457.00,3605.68595,N,14006.63182,E,1,06,1.32,19.4,M,39.3,M,,*66
heart beat counter: 9848
$GPGGA,050458.00,3605.68612,N,14006.63181,E,1,06,1.32,19.2,M,39.3,M,,*60
heart beat counter: 9849
$GPGGA,050459.00,3605.68618,N,14006.63179,E,1,06,1.32,19.2,M,39.3,M,,*6C
heart beat counter: 9850
$GPGGA,050500.00,3605.68604,N,14006.63199,E,1,06,1.32,18.9,M,39.3,M,,*68
heart beat counter: 9851
$GPGGA,050501.00,3605.68610,N,14006.63199,E,1,06,1.32,18.9,M,39.3,M,,*6C
heart beat counter: 9852
$GPGGA,050502.00,3605.68620,N,14006.63184,E,1,06,1.32,19.2,M,39.3,M,,*6A
heart beat counter: 9853
$GPGGA,050503.00,3605.68613,N,14006.63180,E,1,06,1.32,19.6,M,39.3,M,,*6B
heart beat counter: 9854
$GPGGA,050504.00,3605.68608,N,14006.63185,E,1,06,1.32,19.5,M,39.3,M,,*60
heart beat counter: 9855
$GPGGA,050505.00,3605.68595,N,14006.63196,E,1,05,1.51,19.4,M,39.3,M,,*63
heart beat counter: 9856
$GPGGA,050506.00,3605.68615,N,14006.63187,E,1,05,1.51,19.4,M,39.3,M,,*6B
heart beat counter: 9857
$GPGGA,050507.00,3605.68602,N,14006.63202,E,1,05,1.51,19.2,M,39.3,M,,*64
heart beat counter: 9858
$GPGGA,050508.00,3605.68580,N,14006.63201,E,1,06,1.32,19.9,M,39.3,M,,*6C
heart beat counter: 9859
$GPGGA,050509.00,3605.68552,N,14006.63205,E,1,06,1.32,20.4,M,39.3,M,,*61
heart beat counter: 9860
$GPGGA,050510.00,3605.68545,N,14006.63203,E,1,06,1.32,20.9,M,39.3,M,,*64
heart beat counter: 9861
$GPGGA,050511.00,3605.68539,N,14006.63199,E,1,06,1.32,21.4,M,39.3,M,,*62
heart beat counter: 9862
$GPGGA,050512.00,3605.68495,N,14006.63217,E,1,06,1.32,21.7,M,39.3,M,,*60
heart beat counter: 9863
$GPGGA,050513.00,3605.68470,N,14006.63231,E,1,06,1.32,21.9,M,39.3,M,,*60
heart beat counter: 9864
$GPGGA,050514.00,3605.68432,N,14006.63244,E,1,05,1.33,22.4,M,39.3,M,,*6F
heart beat counter: 9865
$GPGGA,050515.00,3605.68444,N,14006.63235,E,1,05,1.33,22.6,M,39.3,M,,*6B
heart beat counter: 9866
$GPGGA,050516.00,3605.68469,N,14006.63213,E,1,05,1.33,22.9,M,39.3,M,,*6C
heart beat counter: 9867
$GPGGA,050517.00,3605.68480,N,14006.63201,E,1,05,1.33,23.1,M,39.3,M,,*60
heart beat counter: 9868
$GPGGA,050518.00,3605.68510,N,14006.63181,E,1,05,1.33,23.2,M,39.3,M,,*6F
heart beat counter: 9869
$GPGGA,050519.00,3605.68545,N,14006.63146,E,1,05,1.33,23.7,M,39.3,M,,*60
heart beat counter: 9870
$GPGGA,050520.00,3605.68537,N,14006.63150,E,1,05,1.33,23.9,M,39.3,M,,*66
heart beat counter: 9871
$GPGGA,050521.00,3605.68589,N,14006.63114,E,1,06,1.32,24.0,M,39.3,M,,*6E
heart beat counter: 9872
$GPGGA,050522.00,3605.68569,N,14006.63148,E,1,05,1.44,23.7,M,39.3,M,,*68
heart beat counter: 9873
$GPGGA,050523.00,3605.68553,N,14006.63176,E,1,06,1.36,23.5,M,39.3,M,,*69
heart beat counter: 9874
$GPGGA,050524.00,3605.68512,N,14006.63216,E,1,06,1.36,23.1,M,39.3,M,,*6A
heart beat counter: 9875
$GPGGA,050525.00,3605.68530,N,14006.63212,E,1,06,1.36,22.9,M,39.3,M,,*66
heart beat counter: 9876
$GPGGA,050526.00,3605.68537,N,14006.63220,E,1,06,1.36,22.5,M,39.3,M,,*6F
heart beat counter: 9877
$GPGGA,050527.00,3605.68550,N,14006.63227,E,1,06,1.36,22.2,M,39.3,M,,*6F
heart beat counter: 9878
$GPGGA,050528.00,3605.68532,N,14006.63254,E,1,06,1.36,22.0,M,39.3,M,,*62
heart beat counter: 9879
$GPGGA,050529.00,3605.68582,N,14006.63239,E,1,06,1.36,21.6,M,39.3,M,,*66
heart beat counter: 9880
$GPGGA,050530.00,3605.68567,N,14006.63264,E,1,06,1.36,21.3,M,39.3,M,,*68
heart beat counter: 9881
$GPGGA,050531.00,3605.68562,N,14006.63286,E,1,06,1.36,21.0,M,39.3,M,,*63
heart beat counter: 9882
$GPGGA,050532.00,3605.68584,N,14006.63286,E,1,06,1.36,20.7,M,39.3,M,,*6E
heart beat counter: 9883
$GPGGA,050533.00,3605.68572,N,14006.63319,E,1,06,1.36,20.3,M,39.3,M,,*65
heart beat counter: 9884
$GPGGA,050534.00,3605.68581,N,14006.63332,E,1,06,1.36,19.9,M,39.3,M,,*67
heart beat counter: 9885
$GPGGA,050535.00,3605.68573,N,14006.63355,E,1,06,1.36,19.6,M,39.3,M,,*65
heart beat counter: 9886
$GPGGA,050536.00,3605.68574,N,14006.63371,E,1,06,1.36,19.3,M,39.3,M,,*62
heart beat counter: 9887
$GPGGA,050537.00,3605.68566,N,14006.63388,E,1,06,1.36,19.1,M,39.3,M,,*64
heart beat counter: 9888
$GPGGA,050538.00,3605.68555,N,14006.63408,E,1,06,1.36,18.8,M,39.3,M,,*6C
heart beat counter: 9889
$GPGGA,050539.00,3605.68590,N,14006.63393,E,1,06,1.36,18.7,M,39.3,M,,*6E
heart beat counter: 9890
$GPGGA,050540.00,3605.68543,N,14006.63426,E,1,06,1.36,18.6,M,39.3,M,,*66
heart beat counter: 9891
$GPGGA,050541.00,3605.68575,N,14006.63415,E,1,06,1.36,18.5,M,39.3,M,,*61
heart beat counter: 9892
$GPGGA,050542.00,3605.68552,N,14006.63429,E,1,06,1.36,18.7,M,39.3,M,,*6A
heart beat counter: 9893
$GPGGA,050543.00,3605.68462,N,14006.63482,E,1,06,1.36,19.0,M,39.3,M,,*6E
heart beat counter: 9894
$GPGGA,050544.00,3605.68459,N,14006.63481,E,1,06,1.36,19.3,M,39.3,M,,*61
heart beat counter: 9895
$GPGGA,050545.00,3605.68466,N,14006.63470,E,1,06,1.36,19.7,M,39.3,M,,*66
heart beat counter: 9896
$GPGGA,050546.00,3605.68444,N,14006.63484,E,1,06,1.36,20.0,M,39.3,M,,*63
heart beat counter: 9897
$GPGGA,050547.00,3605.68418,N,14006.63496,E,1,06,1.36,20.3,M,39.3,M,,*6B
heart beat counter: 9898
$GPGGA,050548.00,3605.68429,N,14006.63478,E,1,06,1.36,20.7,M,39.3,M,,*62
heart beat counter: 9899
$GPGGA,050549.00,3605.68445,N,14006.63468,E,1,06,1.36,20.6,M,39.3,M,,*69
heart beat counter: 9900
$GPGGA,050550.00,3605.68433,N,14006.63471,E,1,06,1.36,20.8,M,39.3,M,,*66
heart beat counter: 9901
$GPGGA,050551.00,3605.68412,N,14006.63476,E,1,06,1.36,21.1,M,39.3,M,,*6B
heart beat counter: 9902
$GPGGA,050552.00,3605.68453,N,14006.63442,E,1,06,1.36,21.3,M,39.3,M,,*68
heart beat counter: 9903
$GPGGA,050553.00,3605.68466,N,14006.63436,E,1,06,1.36,21.3,M,39.3,M,,*6C
heart beat counter: 9904
$GPGGA,050554.00,3605.68489,N,14006.63418,E,1,06,1.36,21.3,M,39.3,M,,*66
heart beat counter: 9905
$GPGGA,050555.00,3605.68495,N,14006.63417,E,1,06,1.36,21.2,M,39.3,M,,*64
heart beat counter: 9906
$GPGGA,050556.00,3605.68504,N,14006.63419,E,1,06,1.36,21.1,M,39.3,M,,*63
heart beat counter: 9907
$GPGGA,050557.00,3605.68487,N,14006.63430,E,1,06,1.36,21.1,M,39.3,M,,*63
heart beat counter: 9908
$GPGGA,050558.00,3605.68446,N,14006.63450,E,1,06,1.36,21.1,M,39.3,M,,*67
heart beat counter: 9909
$GPGGA,050559.00,3605.68413,N,14006.63470,E,1,06,1.36,21.2,M,39.3,M,,*67
heart beat counter: 9910
$GPGGA,050600.00,3605.68386,N,14006.63491,E,1,06,1.36,21.0,M,39.3,M,,*6E
heart beat counter: 9911
$GPGGA,050601.00,3605.68385,N,14006.63497,E,1,06,1.36,20.8,M,39.3,M,,*63
heart beat counter: 9912
$GPGGA,050602.00,3605.68384,N,14006.63499,E,1,06,1.36,20.7,M,39.3,M,,*60
heart beat counter: 9913
$GPGGA,050603.00,3605.68361,N,14006.63519,E,1,06,1.36,20.5,M,39.3,M,,*61
heart beat counter: 9914
$GPGGA,050604.00,3605.68363,N,14006.63508,E,1,05,1.44,20.8,M,39.3,M,,*6F
heart beat counter: 9915
$GPGGA,050605.00,3605.68396,N,14006.63490,E,1,05,1.44,20.7,M,39.3,M,,*6B
heart beat counter: 9916
$GPGGA,050606.00,3605.68420,N,14006.63468,E,1,05,1.44,20.6,M,39.3,M,,*64
heart beat counter: 9917
$GPGGA,050607.00,3605.68455,N,14006.63454,E,1,05,1.44,20.3,M,39.3,M,,*6D
heart beat counter: 9918
$GPGGA,050608.00,3605.68464,N,14006.63468,E,1,06,1.36,19.5,M,39.3,M,,*65
heart beat counter: 9919
$GPGGA,050609.00,3605.68497,N,14006.63467,E,1,07,1.36,18.8,M,39.3,M,,*6A
heart beat counter: 9920
$GPGGA,050610.00,3605.68533,N,14006.63463,E,1,07,1.36,18.1,M,39.3,M,,*60
heart beat counter: 9921
$GPGGA,050611.00,3605.68481,N,14006.63451,E,1,07,1.16,19.9,M,39.3,M,,*63
heart beat counter: 9922
$GPGGA,050612.00,3605.68482,N,14006.63416,E,1,07,1.16,21.1,M,39.3,M,,*63
heart beat counter: 9923
$GPGGA,050613.00,3605.68434,N,14006.63401,E,1,07,1.16,22.8,M,39.3,M,,*63
heart beat counter: 9924
$GPGGA,050614.00,3605.68392,N,14006.63400,E,1,07,1.16,23.7,M,39.3,M,,*60
heart beat counter: 9925
$GPGGA,050615.00,3605.68389,N,14006.63376,E,1,07,1.16,24.8,M,39.3,M,,*65
heart beat counter: 9926
$GPGGA,050616.00,3605.68302,N,14006.63411,E,1,07,1.16,25.4,M,39.3,M,,*6E
heart beat counter: 9927
$GPGGA,050617.00,3605.68266,N,14006.63409,E,1,07,1.16,26.3,M,39.3,M,,*61
heart beat counter: 9928
$GPGGA,050618.00,3605.68241,N,14006.63396,E,1,07,1.16,27.3,M,39.3,M,,*6B
heart beat counter: 9929
$GPGGA,050619.00,3605.68226,N,14006.63414,E,1,07,1.36,26.9,M,39.3,M,,*6F
heart beat counter: 9930
$GPGGA,050620.00,3605.68122,N,14006.63425,E,1,07,1.16,29.0,M,39.3,M,,*64
heart beat counter: 9931
$GPGGA,050621.00,3605.68133,N,14006.63425,E,1,06,1.36,28.6,M,39.3,M,,*61
heart beat counter: 9932
$GPGGA,050622.00,3605.68150,N,14006.63433,E,1,06,1.36,27.9,M,39.3,M,,*60
heart beat counter: 9933
$GPGGA,050623.00,3605.68154,N,14006.63432,E,1,05,1.44,27.9,M,39.3,M,,*62
heart beat counter: 9934
$GPGGA,050624.00,3605.68183,N,14006.63420,E,1,05,1.44,27.6,M,39.3,M,,*63
heart beat counter: 9935
$GPGGA,050625.00,3605.68169,N,14006.63445,E,1,05,1.44,27.2,M,39.3,M,,*61
heart beat counter: 9936
$GPGGA,050626.00,3605.68174,N,14006.63449,E,1,05,1.44,27.1,M,39.3,M,,*61
heart beat counter: 9937
$GPGGA,050627.00,3605.68186,N,14006.63458,E,1,05,1.44,26.6,M,39.3,M,,*6B
heart beat counter: 9938
$GPGGA,050628.00,3605.68171,N,14006.63485,E,1,05,1.44,26.2,M,39.3,M,,*68
heart beat counter: 9939
$GPGGA,050629.00,3605.68204,N,14006.63474,E,1,05,1.44,26.0,M,39.3,M,,*64
heart beat counter: 9940
$GPGGA,050630.00,3605.68188,N,14006.63486,E,1,06,1.17,26.1,M,39.3,M,,*62
heart beat counter: 9941
$GPGGA,050631.00,3605.68162,N,14006.63495,E,1,06,1.17,26.4,M,39.3,M,,*60
heart beat counter: 9942
$GPGGA,050632.00,3605.68140,N,14006.63501,E,1,06,1.17,26.8,M,39.3,M,,*63
heart beat counter: 9943
$GPGGA,050633.00,3605.68122,N,14006.63505,E,1,06,1.17,27.2,M,39.3,M,,*69
heart beat counter: 9944
$GPGGA,050634.00,3605.68129,N,14006.63499,E,1,06,1.17,27.3,M,39.3,M,,*60
heart beat counter: 9945
$GPGGA,050635.00,3605.68117,N,14006.63505,E,1,06,1.17,27.7,M,39.3,M,,*6C
heart beat counter: 9946
$GPGGA,050636.00,3605.68117,N,14006.63502,E,1,06,1.17,28.0,M,39.3,M,,*60
heart beat counter: 9947
$GPGGA,050637.00,3605.68103,N,14006.63518,E,1,06,1.17,28.0,M,39.3,M,,*6F
heart beat counter: 9948
$GPGGA,050638.00,3605.68104,N,14006.63516,E,1,06,1.17,28.3,M,39.3,M,,*6A
heart beat counter: 9949
$GPGGA,050639.00,3605.68084,N,14006.63536,E,1,06,1.17,28.3,M,39.3,M,,*60
heart beat counter: 9950
$GPGGA,050640.00,3605.68065,N,14006.63552,E,1,06,1.17,28.4,M,39.3,M,,*64
heart beat counter: 9951
$GPGGA,050641.00,3605.68068,N,14006.63554,E,1,06,1.17,28.3,M,39.3,M,,*69
heart beat counter: 9952
$GPGGA,050642.00,3605.68056,N,14006.63576,E,1,06,1.17,28.0,M,39.3,M,,*64
heart beat counter: 9953
$GPGGA,050643.00,3605.68025,N,14006.63591,E,1,06,1.17,28.2,M,39.3,M,,*6A
heart beat counter: 9954
$GPGGA,050644.00,3605.68020,N,14006.63601,E,1,06,1.17,28.1,M,39.3,M,,*61
heart beat counter: 9955
$GPGGA,050645.00,3605.68036,N,14006.63599,E,1,06,1.27,27.9,M,39.3,M,,*61
heart beat counter: 9956
$GPGGA,050646.00,3605.68058,N,14006.63592,E,1,06,1.27,27.8,M,39.3,M,,*60
heart beat counter: 9957
$GPGGA,050647.00,3605.68085,N,14006.63593,E,1,06,1.27,27.3,M,39.3,M,,*6B
heart beat counter: 9958
$GPGGA,050648.00,3605.68094,N,14006.63598,E,1,06,1.27,27.0,M,39.3,M,,*6C
heart beat counter: 9959
$GPGGA,050649.00,3605.68110,N,14006.63612,E,1,07,1.22,26.1,M,39.3,M,,*65
heart beat counter: 9960
$GPGGA,050650.00,3605.68105,N,14006.63639,E,1,07,1.16,25.4,M,39.3,M,,*61
heart beat counter: 9961
$GPGGA,050651.00,3605.68090,N,14006.63644,E,1,06,1.17,25.8,M,39.3,M,,*6B
heart beat counter: 9962
$GPGGA,050652.00,3605.68130,N,14006.63615,E,1,07,1.17,26.0,M,39.3,M,,*6D
heart beat counter: 9963
$GPGGA,050653.00,3605.68118,N,14006.63627,E,1,07,1.16,26.0,M,39.3,M,,*66
heart beat counter: 9964
$GPGGA,050654.00,3605.68124,N,14006.63652,E,1,07,1.22,24.7,M,39.3,M,,*6E
heart beat counter: 9965
$GPGGA,050655.00,3605.68126,N,14006.63669,E,1,07,1.22,23.9,M,39.3,M,,*6C
heart beat counter: 9966
$GPGGA,050656.00,3605.68134,N,14006.63679,E,1,07,1.22,23.3,M,39.3,M,,*67
heart beat counter: 9967
$GPGGA,050657.00,3605.68163,N,14006.63681,E,1,07,1.22,22.3,M,39.3,M,,*62
heart beat counter: 9968
$GPGGA,050658.00,3605.68192,N,14006.63682,E,1,07,1.22,21.5,M,39.3,M,,*65
heart beat counter: 9969
$GPGGA,050659.00,3605.68198,N,14006.63685,E,1,07,1.22,21.2,M,39.3,M,,*6E
heart beat counter: 9970
$GPGGA,050700.00,3605.68198,N,14006.63696,E,1,07,1.22,20.7,M,39.3,M,,*65
heart beat counter: 9971
$GPGGA,050701.00,3605.68207,N,14006.63707,E,1,07,1.22,20.2,M,39.3,M,,*6D
heart beat counter: 9972
$GPGGA,050702.00,3605.68195,N,14006.63725,E,1,07,1.22,19.8,M,39.3,M,,*66
heart beat counter: 9973
$GPGGA,050703.00,3605.68206,N,14006.63732,E,1,07,1.22,19.5,M,39.3,M,,*65
heart beat counter: 9974
$GPGGA,050704.00,3605.68206,N,14006.63732,E,1,06,1.27,19.6,M,39.3,M,,*65
heart beat counter: 9975
$GPGGA,050705.00,3605.68211,N,14006.63718,E,1,06,1.27,19.9,M,39.3,M,,*65
heart beat counter: 9976
$GPGGA,050706.00,3605.68220,N,14006.63715,E,1,06,1.27,19.8,M,39.3,M,,*68
heart beat counter: 9977
$GPGGA,050707.00,3605.68203,N,14006.63733,E,1,06,1.27,19.8,M,39.3,M,,*6C
heart beat counter: 9978
$GPGGA,050708.00,3605.68227,N,14006.63714,E,1,06,1.27,19.8,M,39.3,M,,*60
heart beat counter: 9979
$GPGGA,050709.00,3605.68239,N,14006.63709,E,1,06,1.27,19.7,M,39.3,M,,*6D
heart beat counter: 9980
$GPGGA,050710.00,3605.68278,N,14006.63678,E,1,06,1.27,19.9,M,39.3,M,,*69
heart beat counter: 9981
$GPGGA,050711.00,3605.68302,N,14006.63659,E,1,06,1.27,19.9,M,39.3,M,,*67
heart beat counter: 9982
$GPGGA,050712.00,3605.68311,N,14006.63654,E,1,06,1.27,19.9,M,39.3,M,,*6B
heart beat counter: 9983
$GPGGA,050713.00,3605.68333,N,14006.63631,E,1,06,1.27,19.9,M,39.3,M,,*69
heart beat counter: 9984
$GPGGA,050714.00,3605.68345,N,14006.63617,E,1,06,1.27,20.0,M,39.3,M,,*68
heart beat counter: 9985
$GPGGA,050715.00,3605.68364,N,14006.63608,E,1,06,1.27,20.0,M,39.3,M,,*64
heart beat counter: 9986
$GPGGA,050716.00,3605.68364,N,14006.63614,E,1,06,1.27,19.8,M,39.3,M,,*68
heart beat counter: 9987
$GPGGA,050717.00,3605.68332,N,14006.63631,E,1,06,1.27,19.9,M,39.3,M,,*6C
heart beat counter: 9988
$GPGGA,050718.00,3605.68326,N,14006.63631,E,1,06,1.27,20.0,M,39.3,M,,*65
heart beat counter: 9989
$GPGGA,050719.00,3605.68332,N,14006.63624,E,1,06,1.27,20.0,M,39.3,M,,*65
heart beat counter: 9990
$GPGGA,050720.00,3605.68339,N,14006.63610,E,1,06,1.17,20.2,M,39.3,M,,*62
heart beat counter: 9991
$GPGGA,050721.00,3605.68315,N,14006.63625,E,1,06,1.17,20.3,M,39.3,M,,*6A
heart beat counter: 9992
$GPGGA,050722.00,3605.68319,N,14006.63619,E,1,06,1.17,20.4,M,39.3,M,,*6D
heart beat counter: 9993
$GPGGA,050723.00,3605.68325,N,14006.63618,E,1,06,1.17,20.3,M,39.3,M,,*65
heart beat counter: 9994
$GPGGA,050724.00,3605.68346,N,14006.63605,E,1,06,1.17,20.2,M,39.3,M,,*6A
heart beat counter: 9995
$GPGGA,050725.00,3605.68391,N,14006.63577,E,1,06,1.17,20.1,M,39.3,M,,*64
heart beat counter: 9996
$GPGGA,050726.00,3605.68398,N,14006.63573,E,1,06,1.17,20.0,M,39.3,M,,*6B
heart beat counter: 9997
$GPGGA,050727.00,3605.68418,N,14006.63563,E,1,06,1.17,20.1,M,39.3,M,,*65
heart beat counter: 9998
$GPGGA,050728.00,3605.68427,N,14006.63559,E,1,06,1.17,20.1,M,39.3,M,,*6F
heart beat counter: 9999
$GPGGA,050729.00,3605.68445,N,14006.63548,E,1,06,1.17,20.2,M,39.3,M,,*69
heart beat counter: 10000
$GPGGA,050730.00,3605.68465,N,14006.63525,E,1,06,1.17,20.4,M,39.3,M,,*6E
heart beat counter: 10001
$GPGGA,050731.00,3605.68473,N,14006.63526,E,1,06,1.17,20.2,M,39.3,M,,*6D
heart beat counter: 10002
$GPGGA,050732.00,3605.68491,N,14006.63515,E,1,06,1.17,20.3,M,39.3,M,,*63
heart beat counter: 10003
$GPGGA,050733.00,3605.68485,N,14006.63521,E,1,06,1.17,20.4,M,39.3,M,,*67
heart beat counter: 10004
$GPGGA,050734.00,3605.68490,N,14006.63519,E,1,06,1.17,20.3,M,39.3,M,,*68
heart beat counter: 10005
$GPGGA,050735.00,3605.68480,N,14006.63521,E,1,06,1.17,20.6,M,39.3,M,,*66
heart beat counter: 10006
$GPGGA,050736.00,3605.68491,N,14006.63505,E,1,06,1.17,20.9,M,39.3,M,,*6C
heart beat counter: 10007
$GPGGA,050737.00,3605.68502,N,14006.63490,E,1,06,1.17,21.3,M,39.3,M,,*60
heart beat counter: 10008
$GPGGA,050738.00,3605.68524,N,14006.63480,E,1,06,1.17,21.3,M,39.3,M,,*6A
heart beat counter: 10009
$GPGGA,050739.00,3605.68508,N,14006.63490,E,1,06,1.17,21.3,M,39.3,M,,*64
heart beat counter: 10010
$GPGGA,050740.00,3605.68513,N,14006.63475,E,1,05,1.35,21.6,M,39.3,M,,*6D
heart beat counter: 10011
$GPGGA,050741.00,3605.68521,N,14006.63473,E,1,05,1.35,21.3,M,39.3,M,,*6E
heart beat counter: 10012
$GPGGA,050742.00,3605.68510,N,14006.63472,E,1,05,1.35,21.8,M,39.3,M,,*65
heart beat counter: 10013
$GPGGA,050743.00,3605.68509,N,14006.63473,E,1,05,1.35,21.8,M,39.3,M,,*6D
heart beat counter: 10014
$GPGGA,050744.00,3605.68487,N,14006.63497,E,1,06,1.34,21.3,M,39.3,M,,*6E
heart beat counter: 10015
$GPGGA,050745.00,3605.68487,N,14006.63507,E,1,06,1.34,20.8,M,39.3,M,,*6D
heart beat counter: 10016
$GPGGA,050746.00,3605.68492,N,14006.63519,E,1,06,1.34,20.2,M,39.3,M,,*6F
heart beat counter: 10017
$GPGGA,050747.00,3605.68494,N,14006.63526,E,1,06,1.34,19.8,M,39.3,M,,*64
heart beat counter: 10018
$GPGGA,050748.00,3605.68471,N,14006.63555,E,1,06,1.34,19.4,M,39.3,M,,*68
heart beat counter: 10019
$GPGGA,050749.00,3605.68481,N,14006.63558,E,1,06,1.34,19.0,M,39.3,M,,*6F
heart beat counter: 10020
$GPGGA,050750.00,3605.68504,N,14006.63548,E,1,06,1.34,18.7,M,39.3,M,,*6C
heart beat counter: 10021
$GPGGA,050751.00,3605.68521,N,14006.63525,E,1,07,1.16,18.8,M,39.3,M,,*6F
heart beat counter: 10022
$GPGGA,050752.00,3605.68554,N,14006.63498,E,1,07,1.16,18.6,M,39.3,M,,*67
heart beat counter: 10023
$GPGGA,050753.00,3605.68579,N,14006.63479,E,1,07,1.16,18.1,M,39.3,M,,*61
heart beat counter: 10024
$GPGGA,050754.00,3605.68615,N,14006.63445,E,1,07,1.16,18.0,M,39.3,M,,*61
heart beat counter: 10025
$GPGGA,050755.00,3605.68612,N,14006.63436,E,1,07,1.16,17.9,M,39.3,M,,*65
heart beat counter: 10026
$GPGGA,050756.00,3605.68624,N,14006.63439,E,1,06,1.34,17.4,M,39.3,M,,*60
heart beat counter: 10027
$GPGGA,050757.00,3605.68634,N,14006.63439,E,1,06,1.34,17.2,M,39.3,M,,*66
heart beat counter: 10028
$GPGGA,050758.00,3605.68636,N,14006.63430,E,1,06,1.34,17.4,M,39.3,M,,*64
heart beat counter: 10029
$GPGGA,050759.00,3605.68659,N,14006.63413,E,1,06,1.34,17.5,M,39.3,M,,*6C
heart beat counter: 10030
$GPGGA,050800.00,3605.68678,N,14006.63394,E,1,06,1.34,17.5,M,39.3,M,,*64
heart beat counter: 10031
$GPGGA,050801.00,3605.68658,N,14006.63405,E,1,06,1.34,17.5,M,39.3,M,,*68
heart beat counter: 10032
$GPGGA,050802.00,3605.68645,N,14006.63414,E,1,06,1.34,17.5,M,39.3,M,,*67
heart beat counter: 10033
$GPGGA,050803.00,3605.68623,N,14006.63425,E,1,06,1.34,17.6,M,39.3,M,,*67
heart beat counter: 10034
$GPGGA,050804.00,3605.68595,N,14006.63438,E,1,06,1.34,17.9,M,39.3,M,,*6D
heart beat counter: 10035
$GPGGA,050805.00,3605.68602,N,14006.63423,E,1,06,1.34,18.0,M,39.3,M,,*6D
heart beat counter: 10036
$GPGGA,050806.00,3605.68598,N,14006.63411,E,1,06,1.34,18.5,M,39.3,M,,*6A
heart beat counter: 10037
$GPGGA,050807.00,3605.68598,N,14006.63406,E,1,06,1.34,18.8,M,39.3,M,,*60
heart beat counter: 10038
$GPGGA,050808.00,3605.68607,N,14006.63400,E,1,06,1.34,18.7,M,39.3,M,,*63
heart beat counter: 10039
$GPGGA,050809.00,3605.68605,N,14006.63396,E,1,06,1.34,19.0,M,39.3,M,,*6E
heart beat counter: 10040
$GPGGA,050810.00,3605.68579,N,14006.63405,E,1,05,1.35,19.4,M,39.3,M,,*65
heart beat counter: 10041
$GPGGA,050811.00,3605.68571,N,14006.63397,E,1,05,1.35,19.8,M,39.3,M,,*6C
